~VERSION INFORMATION
 VERS.                  2.0   : CWLS LOG ASCII STANDARD - VERSION 2.0
 WRAP.                  NO    : ONE LINE PER DEPTH STEP
~WELL INFORMATION
 STRT.M                 2000.0 : START DEPTH
 STOP.M                 2200.0 : STOP DEPTH
 STEP.M                 0.5    : STEP
 NULL.                  -999.25: NULL VALUE
 COMP.                  PT. PETRO NUSANTARA : COMPANY
 WELL.                  NUSANTARA-1 : WELL
 FLD.                   LAPANGAN MAJU     : FIELD
 LOC.                   KALIMANTAN TIMUR  : LOCATION
 SRVC.                  PETROLOG          : SERVICE COMPANY
 DATE.                  2024-01-15        : LOG DATE
~CURVE INFORMATION
 DEPT.M                 : DEPTH
 GR  .API               : GAMMA RAY
 RT  .OHMM              : TRUE RESISTIVITY
 NPHI.V/V               : NEUTRON POROSITY
 RHOB.G/C3              : BULK DENSITY
 DT  .US/F              : SONIC TRAVEL TIME
~A  DEPT       GR        RT        NPHI      RHOB      DT
 2000.0    85.2     1.20     0.32     2.41     92.0
 2000.5    88.5     1.15     0.31     2.43     93.5
 2001.0    90.1     1.10     0.30     2.44     94.0
 2001.5    92.3     1.08     0.29     2.45     95.0
 2002.0    95.0     1.05     0.28     2.46     96.0
 2002.5    98.2     1.00     0.27     2.47     97.0
 2003.0    100.5    0.98     0.26     2.48     98.0
 2003.5    105.2    0.95     0.25     2.50     99.0
 2004.0    110.1    0.92     0.24     2.51    100.0
 2004.5    112.3    0.90     0.23     2.52    101.0
 2005.0    115.0    0.88     0.22     2.53    102.0
 2005.5    118.2    0.85     0.21     2.54    103.0
 2006.0    120.5    0.82     0.20     2.55    104.0
 2006.5    118.3    0.80     0.21     2.54    103.5
 2007.0    115.1    0.78     0.22     2.53    103.0
 2007.5    110.2    0.75     0.23     2.52    102.0
 2008.0    105.3    0.72     0.25     2.50    101.0
 2008.5    98.5     0.70     0.27     2.48    100.0
 2009.0    90.2     0.68     0.30     2.45     99.0
 2009.5    82.1     0.65     0.32     2.43     98.0
 2010.0    75.3     15.5     0.28     2.35     82.0
 2010.5    72.1     18.2     0.27     2.33     80.0
 2011.0    68.5     22.5     0.26     2.32     79.0
 2011.5    65.2     28.3     0.25     2.31     78.0
 2012.0    62.1     35.5     0.24     2.30     77.0
 2012.5    58.3     45.2     0.23     2.29     76.0
 2013.0    55.1     55.8     0.22     2.28     75.0
 2013.5    52.3     62.3     0.22     2.27     74.5
 2014.0    50.2     68.5     0.21     2.26     74.0
 2014.5    48.5     75.2     0.21     2.25     73.5
 2015.0    45.3     85.3     0.20     2.24     73.0
 2015.5    43.2     95.5     0.20     2.23     72.5
 2016.0    41.5    105.2     0.19     2.22     72.0
 2016.5    40.2    115.8     0.19     2.22     71.8
 2017.0    38.5    125.3     0.18     2.21     71.5
 2017.5    37.3    135.5     0.18     2.21     71.2
 2018.0    36.2    145.2     0.18     2.20     71.0
 2018.5    35.5    152.3     0.18     2.20     70.8
 2019.0    35.0    158.5     0.17     2.19     70.5
 2019.5    34.8    162.3     0.17     2.19     70.3
 2020.0    35.2    165.5     0.17     2.20     70.5
 2020.5    38.5    142.3     0.18     2.22     71.5
 2021.0    45.2     95.5     0.20     2.25     73.0
 2021.5    55.3     65.2     0.22     2.28     75.0
 2022.0    65.5     42.3     0.24     2.32     78.0
 2022.5    78.2     25.5     0.27     2.38     82.0
 2023.0    88.5     15.2     0.30     2.42     88.0
 2023.5    95.2     10.5     0.31     2.44     92.0
 2024.0   102.5      8.2     0.30     2.45     94.0
 2024.5   108.3      7.5     0.29     2.46     95.0
 2025.0   112.5      7.2     0.28     2.47     96.0
 2025.5   115.2      7.0     0.27     2.48     97.0
 2026.0   118.5      6.8     0.26     2.49     98.0
 2026.5   120.2      6.5     0.25     2.50     99.0
 2027.0   118.5      6.8     0.26     2.49     98.5
 2027.5   112.3      7.5     0.27     2.47     97.0
 2028.0   105.2      8.8     0.29     2.46     95.0
 2028.5    98.5     10.5     0.30     2.44     93.0
 2029.0    88.2     14.2     0.31     2.43     91.0
 2029.5    78.3     22.5     0.30     2.41     88.0
 2030.0    65.2     45.8     0.28     2.38     84.0
 2030.5    55.3     75.5     0.26     2.35     81.0
 2031.0    45.2    105.2     0.25     2.32     78.0
 2031.5    40.5    135.8     0.24     2.30     76.0
 2032.0    38.2    155.5     0.23     2.28     75.0
 2032.5    36.5    172.3     0.23     2.27     74.5
 2033.0    35.2    185.5     0.22     2.26     74.0
 2033.5    34.8    192.3     0.22     2.25     73.8
 2034.0    34.5    198.5     0.21     2.25     73.5
 2034.5    34.2    205.2     0.21     2.24     73.2
 2035.0    34.0    210.5     0.21     2.24     73.0
 2035.5    34.2    208.3     0.21     2.24     73.0
 2036.0    35.5    195.5     0.22     2.25     73.5
 2036.5    38.2    175.2     0.22     2.26     74.0
 2037.0    42.5    152.3     0.23     2.28     75.0
 2037.5    48.3    128.5     0.24     2.30     76.5
 2038.0    55.2    102.5     0.25     2.33     78.0
 2038.5    65.5     78.2     0.27     2.37     81.0
 2039.0    78.3     52.5     0.28     2.40     85.0
 2039.5    88.5     35.2     0.30     2.43     88.0
 2040.0    95.2     22.5     0.31     2.44     91.0
 2040.5   102.3     15.5     0.30     2.45     93.0
 2041.0   108.5     12.2     0.29     2.46     95.0
 2041.5   112.3     10.5     0.28     2.47     96.0
 2042.0   115.5      9.8     0.27     2.48     97.0
 2042.5   118.2      9.2     0.26     2.49     98.0
 2043.0   120.5      8.8     0.25     2.50     99.0
 2043.5   118.3      9.5     0.26     2.49     98.5
 2044.0   112.5     11.2     0.27     2.47     97.0
 2044.5   105.2     14.5     0.28     2.46     95.5
 2045.0    98.5     18.2     0.29     2.44     93.5
 2045.5    88.2     25.5     0.30     2.42     90.5
 2046.0    75.3     38.2     0.29     2.39     87.0
 2046.5    62.5     58.5     0.28     2.36     83.5
 2047.0    52.3     82.5     0.26     2.33     80.0
 2047.5    45.5    108.2     0.25     2.30     77.0
 2048.0    40.2    135.5     0.24     2.28     75.5
 2048.5    37.5    158.2     0.23     2.27     74.5
 2049.0    35.8    175.5     0.23     2.26     74.0
 2049.5    35.2    185.2     0.22     2.25     73.5
 2050.0    34.8    192.5     0.22     2.25     73.2
 2100.0    95.5      8.5     0.28     2.45     95.0
 2100.5   100.2      8.2     0.27     2.46     96.0
 2101.0   105.5      7.8     0.26     2.47     97.0
 2101.5   110.2      7.5     0.25     2.48     98.0
 2102.0   112.5      7.2     0.24     2.49     99.0
 2150.0    88.5      9.5     0.29     2.44     94.0
 2150.5    82.3     12.5     0.30     2.42     92.0
 2151.0    75.5     18.5     0.29     2.40     89.0
 2151.5    65.2     32.5     0.28     2.37     85.0
 2152.0    55.3     55.5     0.27     2.34     81.0
 2152.5    48.2     82.5     0.26     2.31     78.0
 2153.0    42.5    112.5     0.25     2.29     76.0
 2153.5    38.5    142.5     0.24     2.27     74.5
 2154.0    36.2    165.5     0.23     2.26     73.8
 2154.5    35.0    182.5     0.23     2.25     73.5
 2155.0    34.5    195.5     0.22     2.24     73.2
 2155.5    34.2    205.5     0.22     2.24     73.0
 2156.0    34.0    212.5     0.22     2.23     72.8
 2156.5    34.2    208.5     0.22     2.24     73.0
 2157.0    35.5    192.5     0.23     2.25     73.5
 2157.5    38.5    168.5     0.23     2.26     74.0
 2158.0    45.2    138.5     0.24     2.28     75.0
 2158.5    55.5    105.5     0.25     2.31     77.0
 2159.0    68.2     78.5     0.26     2.35     80.0
 2159.5    80.5     52.5     0.28     2.39     84.0
 2160.0    90.2     32.5     0.29     2.42     88.0
 2200.0   105.5      7.5     0.26     2.47     97.0
